city,latitude,longitude,region
London,51.507,-0.128,South East
Manchester,53.483,-2.244,North West
Birmingham,52.489,-1.898,West Midlands
Leeds,53.801,-1.549,Yorkshire
Glasgow,55.861,-4.250,Scotland
Edinburgh,55.953,-3.189,Scotland
Liverpool,53.408,-2.992,North West
Bristol,51.455,-2.588,South West
Cardiff,51.481,-3.179,Wales
Belfast,54.597,-5.930,Northern Ireland
